{"total_count": 128, "results": [{"number": 1011, "name": "01011 - BORNE TEST NANTES 1", "address": "Borne test 1", "position": {"lon": -1.5575, "lat": 47.19504}, "banking": "False", "bonus": "False", "status": "OPEN", "contract_name": "nantes", "bike_stands": 0, "available_bike_stands": 0, "available_bikes": 0, "last_update": "2022-05-23T14:41:50+00:00"}, {"number": 1012, "name": "01012 - BORNE TEST NANTES 2", "address": "CREATION STATION TEST NANTES 2", "position": {"lon": -1.557559, "lat": 47.195299}, "banking": "False", "bonus": "False", "status": "OPEN", "contract_name": "nantes", "bike_stands": 7, "available_bike_stands": 6, "available_bikes": 0, "last_update": "2024-05-03T10:04:54+00:00"}, {"number": 2, "name": "002-H\u00d4TEL DE VILLE", "address": "29, rue de Strasbourg", "position": {"lon": -1.55348429039295, "lat": 47.2185718130915}, "banking": "False", "bonus": "False", "status": "OPEN", "contract_name": "nantes", "bike_stands": 20, "available_bike_stands": 14, "available_bikes": 5, "last_update": "2024-11-15T15:16:59+00:00"}, {"number": 26, "name": "026-GUIST'HAU SUD", "address": "30, boulevard Gabriel Guist'Hau - Rue Harouys", "position": {"lon": -1.56700452626517, "lat": 47.2168279599745}, "banking": "False", "bonus": "False", "status": "OPEN", "contract_name": "nantes", "bike_stands": 15, "available_bike_stands": 11, "available_bikes": 4, "last_update": "2024-11-15T15:16:18+00:00"}, {"number": 52, "name": "052-BACO", "address": "8, all\u00e9e Baco", "position": {"lon": -1.54875055574198, "lat": 47.2143275245891}, "banking": "False", "bonus": "False", "status": "OPEN", "contract_name": "nantes", "bike_stands": 15, "available_bike_stands": 8, "available_bikes": 7, "last_update": "2024-11-15T15:16:42+00:00"}, {"number": 82, "name": "082-S\u00c9BILLEAU", "address": "120, rue Dr Jules S\u00e9billeau", "position": {"lon": -1.53311824492362, "lat": 47.2067575123084}, "banking": "True", "bonus": "False", "status": "OPEN", "contract_name": "nantes", "bike_stands": 16, "available_bike_stands": 9, "available_bikes": 7, "last_update": "2024-11-15T15:17:02+00:00"}, {"number": 74, "name": "074-CANCLAUX", "address": "8, place Canclaux", "position": {"lon": -1.57492461719297, "lat": 47.2143336608893}, "banking": "False", "bonus": "False", "status": "OPEN", "contract_name": "nantes", "bike_stands": 15, "available_bike_stands": 10, "available_bikes": 5, "last_update": "2024-11-15T15:19:34+00:00"}, {"number": 110, "name": "110-AUDITORIUM", "address": "1, avenue de Bretagne - REZ\u00c9", "position": {"lon": -1.554025, "lat": 47.185402}, "banking": "False", "bonus": "False", "status": "OPEN", "contract_name": "nantes", "bike_stands": 20, "available_bike_stands": 9, "available_bikes": 11, "last_update": "2024-11-15T15:19:25+00:00"}, {"number": 7, "name": "007-BARILLERIE", "address": "2, all\u00e9e Penthi\u00e8vre", "position": {"lon": -1.55612612597517, "lat": 47.2153313580104}, "banking": "True", "bonus": "False", "status": "OPEN", "contract_name": "nantes", "bike_stands": 30, "available_bike_stands": 25, "available_bikes": 5, "last_update": "2024-11-15T15:21:17+00:00"}, {"number": 115, "name": "115-TRENTEMOULT", "address": "Face 11, quai Marcel Boissard - Trentemoult - REZ\u00c9", "position": {"lon": -1.581806, "lat": 47.195308}, "banking": "False", "bonus": "False", "status": "OPEN", "contract_name": "nantes", "bike_stands": 26, "available_bike_stands": 18, "available_bikes": 8, "last_update": "2024-11-15T15:19:22+00:00"}, {"number": 81, "name": "081-MANGIN", "address": "Devant le 8, place Mangin", "position": {"lon": -1.54550725123162, "lat": 47.2009555172397}, "banking": "False", "bonus": "False", "status": "OPEN", "contract_name": "nantes", "bike_stands": 14, "available_bike_stands": 12, "available_bikes": 2, "last_update": "2024-11-15T15:19:23+00:00"}, {"number": 8, "name": "008-BOUCHERIE", "address": "4, rue de la Boucherie", "position": {"lon": -1.55711168019757, "lat": 47.2162008925882}, "banking": "True", "bonus": "False", "status": "OPEN", "contract_name": "nantes", "bike_stands": 24, "available_bike_stands": 15, "available_bikes": 9, "last_update": "2024-11-15T15:19:26+00:00"}, {"number": 1, "name": "001-PR\u00c9FECTURE", "address": "Place du Port Communeau", "position": {"lon": -1.55489134108209, "lat": 47.2198398196124}, "banking": "True", "bonus": "False", "status": "OPEN", "contract_name": "nantes", "bike_stands": 33, "available_bike_stands": 20, "available_bikes": 13, "last_update": "2024-11-15T15:20:11+00:00"}, {"number": 80, "name": "080-VICTOR HUGO", "address": "25, boulevard Victor Hugo - 28, boulevard Gustave Roch", "position": {"lon": -1.5515484848032, "lat": 47.2040032084911}, "banking": "False", "bonus": "False", "status": "OPEN", "contract_name": "nantes", "bike_stands": 15, "available_bike_stands": 13, "available_bikes": 2, "last_update": "2024-11-15T15:19:51+00:00"}, {"number": 101, "name": "101-PIRMIL", "address": "13, rue Esnoul des Ch\u00e2telets", "position": {"lon": -1.54156809120326, "lat": 47.1965313642396}, "banking": "True", "bonus": "False", "status": "OPEN", "contract_name": "nantes", "bike_stands": 28, "available_bike_stands": 13, "available_bikes": 15, "last_update": "2024-11-15T15:19:39+00:00"}, {"number": 6, "name": "006-PLACE DU CIRQUE", "address": "7, all\u00e9e Duquesne", "position": {"lon": -1.55693764537887, "lat": 47.217596682406}, "banking": "True", "bonus": "False", "status": "OPEN", "contract_name": "nantes", "bike_stands": 21, "available_bike_stands": 9, "available_bikes": 12, "last_update": "2024-11-15T15:20:07+00:00"}, {"number": 102, "name": "102-GARE DE PONT ROUSSEAU", "address": "Rue de la Gare - REZ\u00c9", "position": {"lon": -1.549212, "lat": 47.19316}, "banking": "True", "bonus": "False", "status": "OPEN", "contract_name": "nantes", "bike_stands": 24, "available_bike_stands": 21, "available_bikes": 3, "last_update": "2024-11-15T15:19:00+00:00"}, {"number": 113, "name": "113-MAIRIE DE REZ\u00c9", "address": "Place Jean-Baptiste Daviais - REZ\u00c9", "position": {"lon": -1.569362, "lat": 47.191117}, "banking": "False", "bonus": "False", "status": "OPEN", "contract_name": "nantes", "bike_stands": 21, "available_bike_stands": 12, "available_bikes": 9, "last_update": "2024-11-15T15:18:37+00:00"}, {"number": 123, "name": "123-TRARIEUX", "address": "3, place Gabriel Trarieux", "position": {"lon": -1.522334, "lat": 47.225957}, "banking": "False", "bonus": "False", "status": "OPEN", "contract_name": "nantes", "bike_stands": 20, "available_bike_stands": 16, "available_bikes": 4, "last_update": "2024-11-15T15:17:43+00:00"}, {"number": 103, "name": "103-GRUE JAUNE", "address": "Grue Jaune - Face au mail des Chantiers", "position": {"lon": -1.569191, "lat": 47.204879}, "banking": "False", "bonus": "False", "status": "OPEN", "contract_name": "nantes", "bike_stands": 21, "available_bike_stands": 17, "available_bikes": 4, "last_update": "2024-11-15T15:18:32+00:00"}]}