{"total_count": 128, "results": [{"number": 43, "name": "043-MACHINE DE L'\u00ceLE", "address": "2 bis, boulevard L\u00e9on Bureau", "position": {"lon": -1.565034, "lat": 47.206727}, "banking": "True", "bonus": "False", "status": "OPEN", "contract_name": "nantes", "bike_stands": 36, "available_bike_stands": 15, "available_bikes": 20, "last_update": "2024-11-15T15:08:10+00:00"}, {"number": 19, "name": "019-SAINT SIMILIEN", "address": "1, place Saint Similien", "position": {"lon": -1.55892089047478, "lat": 47.21985446733}, "banking": "False", "bonus": "False", "status": "OPEN", "contract_name": "nantes", "bike_stands": 15, "available_bike_stands": 8, "available_bikes": 7, "last_update": "2024-11-15T15:08:53+00:00"}, {"number": 53, "name": "053-OLIVETTES", "address": "10, rue des Olivettes", "position": {"lon": -1.54988602493776, "lat": 47.2117363932221}, "banking": "False", "bonus": "False", "status": "OPEN", "contract_name": "nantes", "bike_stands": 15, "available_bike_stands": 15, "available_bikes": 0, "last_update": "2024-11-15T15:08:00+00:00"}, {"number": 79, "name": "079-MALAKOFF", "address": "15, quai de Malakoff", "position": {"lon": -1.536954, "lat": 47.213395}, "banking": "False", "bonus": "False", "status": "OPEN", "contract_name": "nantes", "bike_stands": 15, "available_bike_stands": 9, "available_bikes": 4, "last_update": "2024-11-15T15:09:06+00:00"}, {"number": 104, "name": "104-ANTILLES", "address": "20, quai des Antilles", "position": {"lon": -1.5722774, "lat": 47.202685}, "banking": "False", "bonus": "False", "status": "OPEN", "contract_name": "nantes", "bike_stands": 24, "available_bike_stands": 23, "available_bikes": 1, "last_update": "2024-11-15T15:07:59+00:00"}, {"number": 17, "name": "017-SAINTE \u00c9LISABETH", "address": "4, place Sainte Elisabeth", "position": {"lon": -1.56157014764171, "lat": 47.2192139526135}, "banking": "False", "bonus": "False", "status": "OPEN", "contract_name": "nantes", "bike_stands": 14, "available_bike_stands": 4, "available_bikes": 10, "last_update": "2024-11-15T15:08:20+00:00"}, {"number": 37, "name": "037-F\u00c9LIX \u00c9BOU\u00c9", "address": "1, all\u00e9e de l'\u00cele Gloriette", "position": {"lon": -1.5568245371939, "lat": 47.211465063355}, "banking": "False", "bonus": "False", "status": "OPEN", "contract_name": "nantes", "bike_stands": 27, "available_bike_stands": 9, "available_bikes": 18, "last_update": "2024-11-15T15:07:50+00:00"}, {"number": 64, "name": "064-SAINT CL\u00c9MENT", "address": "24, rue du Mar\u00e9chal Joffre", "position": {"lon": -1.5470992337185, "lat": 47.2217851835226}, "banking": "False", "bonus": "False", "status": "OPEN", "contract_name": "nantes", "bike_stands": 15, "available_bike_stands": 9, "available_bikes": 6, "last_update": "2024-11-15T15:08:19+00:00"}, {"number": 28, "name": "028-CARRI\u00c8RE MISERY", "address": "Rue Joseph Cholet", "position": {"lon": -1.57990384592236, "lat": 47.2000724914656}, "banking": "False", "bonus": "False", "status": "OPEN", "contract_name": "nantes", "bike_stands": 16, "available_bike_stands": 13, "available_bikes": 3, "last_update": "2024-11-15T15:07:25+00:00"}, {"number": 24, "name": "024-VERSAILLES", "address": "25, quai de Versailles - Ile de Versailles", "position": {"lon": -1.55371196140233, "lat": 47.2245149071911}, "banking": "False", "bonus": "False", "status": "OPEN", "contract_name": "nantes", "bike_stands": 15, "available_bike_stands": 14, "available_bikes": 1, "last_update": "2024-11-15T15:08:43+00:00"}, {"number": 3, "name": "003-STRASBOURG", "address": "4, rue des Carm\u00e9lites - Place Tirant Lo Blanc", "position": {"lon": -1.551979, "lat": 47.21682}, "banking": "False", "bonus": "False", "status": "OPEN", "contract_name": "nantes", "bike_stands": 15, "available_bike_stands": 15, "available_bikes": 0, "last_update": "2024-11-15T15:07:15+00:00"}, {"number": 117, "name": "117-MAIRIE DE CHANTENAY", "address": "Place de la Libert\u00e9", "position": {"lon": -1.58785, "lat": 47.20656}, "banking": "False", "bonus": "False", "status": "OPEN", "contract_name": "nantes", "bike_stands": 15, "available_bike_stands": 6, "available_bikes": 9, "last_update": "2024-11-15T15:13:00+00:00"}, {"number": 4, "name": "004-MOULIN", "address": "18, rue du Moulin", "position": {"lon": -1.5543847138777, "lat": 47.2166675820152}, "banking": "False", "bonus": "False", "status": "OPEN", "contract_name": "nantes", "bike_stands": 12, "available_bike_stands": 8, "available_bikes": 4, "last_update": "2024-11-15T15:11:34+00:00"}, {"number": 38, "name": "038-RICORDEAU", "address": "Place Alexis-Ricordeau - Chauss\u00e9e de la Madeleine", "position": {"lon": -1.55304912932047, "lat": 47.2121084631418}, "banking": "True", "bonus": "False", "status": "OPEN", "contract_name": "nantes", "bike_stands": 40, "available_bike_stands": 14, "available_bikes": 26, "last_update": "2024-11-15T15:09:29+00:00"}, {"number": 116, "name": "116-LIBERT\u00c9", "address": "Rond-Point de Louisiane", "position": {"lon": -1.588395, "lat": 47.198124}, "banking": "False", "bonus": "False", "status": "OPEN", "contract_name": "nantes", "bike_stands": 20, "available_bike_stands": 5, "available_bikes": 15, "last_update": "2024-11-15T15:09:55+00:00"}, {"number": 90, "name": "090-PROC\u00c9", "address": "Angle boulevard Gaston Serpette - Boulevard Auguste Pageot", "position": {"lon": -1.57661284372726, "lat": 47.2241950617326}, "banking": "False", "bonus": "False", "status": "OPEN", "contract_name": "nantes", "bike_stands": 15, "available_bike_stands": 14, "available_bikes": 1, "last_update": "2024-11-15T15:09:26+00:00"}, {"number": 120, "name": "120-ROND-POINT DE PARIS", "address": "16, boulevard Jules Verne", "position": {"lon": -1.534981, "lat": 47.234853}, "banking": "True", "bonus": "False", "status": "OPEN", "contract_name": "nantes", "bike_stands": 30, "available_bike_stands": 25, "available_bikes": 5, "last_update": "2024-11-15T15:09:52+00:00"}, {"number": 9, "name": "009-GU\u00c9PIN", "address": "Angle rue du Calvaire / Rue Gu\u00e9pin", "position": {"lon": -1.55901748516744, "lat": 47.2158145871395}, "banking": "False", "bonus": "False", "status": "OPEN", "contract_name": "nantes", "bike_stands": 14, "available_bike_stands": 8, "available_bikes": 6, "last_update": "2024-11-15T15:10:16+00:00"}, {"number": 124, "name": "124-PAS ENCHANT\u00c9S", "address": "Boulevard des Pas Enchant\u00e9s - SAINT-S\u00c9BASTIEN-SUR-LOIRE", "position": {"lon": -1.522726, "lat": 47.205239}, "banking": "True", "bonus": "False", "status": "OPEN", "contract_name": "nantes", "bike_stands": 25, "available_bike_stands": 13, "available_bikes": 12, "last_update": "2024-11-15T15:10:50+00:00"}, {"number": 65, "name": "065-COURS SULLY", "address": "9, cours Sully", "position": {"lon": -1.55166644254598, "lat": 47.2225873399067}, "banking": "False", "bonus": "False", "status": "OPEN", "contract_name": "nantes", "bike_stands": 15, "available_bike_stands": 11, "available_bikes": 4, "last_update": "2024-11-15T15:09:39+00:00"}]}